[{"name":"Agincourt Recreation Centre","url":"/parks/prd/facilities/complex/523/index.htm","address":"31 Glen Watford Dr","coordinates":{"latitude":43.7880479,"longitude":-79.2762419}},{"name":"Albert Campbell Collegiate Institute","url":"/parks/prd/facilities/complex/1110/index.htm","address":"1550 Sandhurst Cir","coordinates":{"latitude":43.8092878,"longitude":-79.27216949999999}},{"name":"Albion Pool And Health Club","url":"/parks/prd/facilities/complex/893/index.htm","address":"1485 Albion Rd","coordinates":{"latitude":43.7393169,"longitude":-79.58122999999999}},{"name":"Alderwood Centre","url":"/parks/prd/facilities/complex/897/index.htm","address":"2 Orianna Dr","coordinates":{"latitude":43.6015113,"longitude":-79.5465384}},{"name":"Annette Community Recreation Centre","url":"/parks/prd/facilities/complex/17/index.htm","address":"333 Annette St","coordinates":{"latitude":43.6612129,"longitude":-79.4741423}},{"name":"Antibes Community Centre","url":"/parks/prd/facilities/complex/42/index.htm","address":"140 Antibes Dr","coordinates":{"latitude":43.781149,"longitude":-79.446999}},{"name":"Beaches Recreation Centre","url":"/parks/prd/facilities/complex/24/index.htm","address":"6 Williamson Rd","coordinates":{"latitude":43.6739396,"longitude":-79.2988103}},{"name":"Bedford Park Community Centre","url":"/parks/prd/facilities/complex/27/index.htm","address":"81 Ranleigh Ave","coordinates":{"latitude":43.7280835,"longitude":-79.40025299999999}},{"name":"Bendale Business And Technical Institute","url":"/parks/prd/facilities/complex/1125/index.htm","address":"1555 Midland Ave","coordinates":{"latitude":43.75403310000001,"longitude":-79.26591309999999}},{"name":"Birchmount Community Centre","url":"/parks/prd/facilities/complex/507/index.htm","address":"93 Birchmount Rd","coordinates":{"latitude":43.6945099,"longitude":-79.2629168}},{"name":"Brown Community Centre","url":"/parks/prd/facilities/complex/33/index.htm","address":"454 Avenue Rd","coordinates":{"latitude":43.6850494,"longitude":-79.4011721}},{"name":"Cedarbrae Collegiate Institute","url":"/parks/prd/facilities/complex/1143/index.htm","address":"550 Markham Rd","coordinates":{"latitude":43.7561724,"longitude":-79.2257434}},{"name":"Centennial Recreation Centre - Scarborough","url":"/parks/prd/facilities/complex/537/index.htm","address":"1967 Ellesmere Rd","coordinates":{"latitude":43.7746687,"longitude":-79.23679249999999}},{"name":"Centennial Recreation Centre West And York Museum","url":"/parks/prd/facilities/complex/474/index.htm","address":"2694 Eglinton Ave W","coordinates":{"latitude":43.689923,"longitude":-79.478453}},{"name":"Cummer Park Community Centre","url":"/parks/prd/facilities/complex/499/index.htm","address":"6000 Leslie St","coordinates":{"latitude":43.8011814,"longitude":-79.3707561}},{"name":"CW Jefferys Collegiate Institute","url":"/parks/prd/facilities/complex/1163/index.htm","address":"340 Sentinel Rd","coordinates":{"latitude":43.7583032,"longitude":-79.5002222}},{"name":"DA Morrison Junior High School","url":"/parks/prd/facilities/complex/1164/index.htm","address":"271 Gledhill Ave","coordinates":{"latitude":43.6946151,"longitude":-79.31205489999999}},{"name":"Dennis R. Timbrell Resource Centre","url":"/parks/prd/facilities/complex/1056/index.htm","address":"29 St Dennis Dr","coordinates":{"latitude":43.7180414,"longitude":-79.3316281}},{"name":"Don Mills Collegiate Institute","url":"/parks/prd/facilities/complex/1174/index.htm","address":"15 The Donway E","coordinates":{"latitude":43.7357123,"longitude":-79.33961719999999}},{"name":"Douglas Snow Aquatic Centre","url":"/parks/prd/facilities/complex/567/index.htm","address":"5100 Yonge St","coordinates":{"latitude":43.7673266,"longitude":-79.41476039999999}},{"name":"Earl Beatty Community Centre","url":"/parks/prd/facilities/complex/36/index.htm","address":"455 Glebeholme Blvd","coordinates":{"latitude":43.6859133,"longitude":-79.3212939}},{"name":"East York Community Centre","url":"/parks/prd/facilities/complex/329/index.htm","address":"1081 1/2 Pape Ave","coordinates":{"latitude":43.6592253,"longitude":-79.3368285}},{"name":"Emery Collegiate Institute","url":"/parks/prd/facilities/complex/1186/index.htm","address":"3395 Weston Rd","coordinates":{"latitude":43.7482868,"longitude":-79.5392577}},{"name":"Etobicoke Olympium","url":"/parks/prd/facilities/complex/892/index.htm","address":"590 Rathburn Rd","coordinates":{"latitude":43.6501933,"longitude":-79.5838965}},{"name":"Fairmount Park Community Centre","url":"/parks/prd/facilities/complex/308/index.htm","address":"1757 Gerrard St E","coordinates":{"latitude":43.6765569,"longitude":-79.31472080000002}},{"name":"Frankland Community Centre","url":"/parks/prd/facilities/complex/39/index.htm","address":"816 Logan Ave","coordinates":{"latitude":40.4589416,"longitude":-80.60771419999999}},{"name":"Georges Vanier Secondary School","url":"/parks/prd/facilities/complex/1200/index.htm","address":"3000 Don Mills Rd E","coordinates":{"latitude":43.7827069,"longitude":-79.35318649999999}},{"name":"Gordon A. Brown Middle School","url":"/parks/prd/facilities/complex/1205/index.htm","address":"2800 St Clair Ave E","coordinates":{"latitude":43.7071092,"longitude":-79.3055145}},{"name":"Gus Ryder Pool And Health Club","url":"/parks/prd/facilities/complex/896/index.htm","address":"1 Faustina Dr","coordinates":{"latitude":43.6012328,"longitude":-79.52197749999999}},{"name":"Harrison Pool","url":"/parks/prd/facilities/complex/45/index.htm","address":"15 Stephanie St","coordinates":{"latitude":43.6510804,"longitude":-79.3908331}},{"name":"Hillcrest Community Centre","url":"/parks/prd/facilities/complex/48/index.htm","address":"1339 Bathurst St","coordinates":{"latitude":43.6791638,"longitude":-79.4164563}},{"name":"Humber Community Pool","url":"/parks/prd/facilities/complex/357/index.htm","address":"205 Humber College Blvd","coordinates":{"latitude":43.728544,"longitude":-79.607913}},{"name":"Jimmie Simpson Recreation Centre","url":"/parks/prd/facilities/complex/58/index.htm","address":"870 Queen St E","coordinates":{"latitude":43.6600644,"longitude":-79.3452488}},{"name":"John Innes Community Recreation Centre","url":"/parks/prd/facilities/complex/63/index.htm","address":"150 Sherbourne St","coordinates":{"latitude":43.6554903,"longitude":-79.37008159999999}},{"name":"Joseph J. Piccininni Community Centre","url":"/parks/prd/facilities/complex/509/index.htm","address":"1369 St Clair Ave W","coordinates":{"latitude":43.6757354,"longitude":-79.45223800000001}},{"name":"L'Amoreaux Collegiate Institute","url":"/parks/prd/facilities/complex/1250/index.htm","address":"2501 Bridletowne Cir","coordinates":{"latitude":43.8020361,"longitude":-79.31793379999999}},{"name":"Leaside Memorial Gardens Swimming Pool - Indoor Pool","url":"/parks/prd/facilities/complex/542/index.htm","address":"1073 Millwood Rd","coordinates":{"latitude":43.7018897,"longitude":-79.36098299999999}},{"name":"Lester B. Pearson Collegiate Institute","url":"/parks/prd/facilities/complex/1255/index.htm","address":"150 Tapscott Rd","coordinates":{"latitude":43.8030975,"longitude":-79.22595260000001}},{"name":"Main Square Community Centre","url":"/parks/prd/facilities/complex/85/index.htm","address":"245 Main St","coordinates":{"latitude":40.4643789,"longitude":-80.59936809999999}},{"name":"Mary McCormick Recreation Centre","url":"/parks/prd/facilities/complex/100/index.htm","address":"66 Sheridan Ave","coordinates":{"latitude":43.6474373,"longitude":-79.4328546}}]