[{"name":"Agincourt Recreation Centre","url":"/parks/prd/facilities/complex/523/index.htm","address":"31 Glen Watford Dr","coordinates":{"latitude":43.7880479,"longitude":-79.2762419}},{"name":"Albert Campbell Collegiate Institute","url":"/parks/prd/facilities/complex/1110/index.htm","address":"1550 Sandhurst Cir","coordinates":{"latitude":43.8092878,"longitude":-79.27216949999999}},{"name":"Albion Pool And Health Club","url":"/parks/prd/facilities/complex/893/index.htm","address":"1485 Albion Rd","coordinates":{"latitude":43.7393169,"longitude":-79.58122999999999}},{"name":"Alderwood Centre","url":"/parks/prd/facilities/complex/897/index.htm","address":"2 Orianna Dr","coordinates":{"latitude":43.60151140000001,"longitude":-79.546538}},{"name":"Annette Community Recreation Centre","url":"/parks/prd/facilities/complex/17/index.htm","address":"333 Annette St","coordinates":{"latitude":43.6612129,"longitude":-79.4741423}},{"name":"Antibes Community Centre","url":"/parks/prd/facilities/complex/42/index.htm","address":"140 Antibes Dr","coordinates":{"latitude":43.781149,"longitude":-79.446999}},{"name":"Beaches Recreation Centre","url":"/parks/prd/facilities/complex/24/index.htm","address":"6 Williamson Rd","coordinates":{"latitude":43.6739396,"longitude":-79.2988103}},{"name":"Bedford Park Community Centre","url":"/parks/prd/facilities/complex/27/index.htm","address":"81 Ranleigh Ave","coordinates":{"latitude":43.7280835,"longitude":-79.40025299999999}},{"name":"Bendale Business And Technical Institute","url":"/parks/prd/facilities/complex/1125/index.htm","address":"1555 Midland Ave","coordinates":{"latitude":43.75403310000001,"longitude":-79.26591309999999}},{"name":"Birchmount Community Centre","url":"/parks/prd/facilities/complex/507/index.htm","address":"93 Birchmount Rd","coordinates":{"latitude":43.6945098,"longitude":-79.2629171}},{"name":"Brown Community Centre","url":"/parks/prd/facilities/complex/33/index.htm","address":"454 Avenue Rd","coordinates":{"latitude":43.6850494,"longitude":-79.4011721}},{"name":"Cedarbrae Collegiate Institute","url":"/parks/prd/facilities/complex/1143/index.htm","address":"550 Markham Rd","coordinates":{"latitude":43.7561724,"longitude":-79.2257434}},{"name":"Centennial Recreation Centre - Scarborough","url":"/parks/prd/facilities/complex/537/index.htm","address":"1967 Ellesmere Rd","coordinates":{"latitude":43.7746687,"longitude":-79.23679249999999}},{"name":"Centennial Recreation Centre West And York Museum","url":"/parks/prd/facilities/complex/474/index.htm","address":"2694 Eglinton Ave W","coordinates":{"latitude":43.689923,"longitude":-79.478453}},{"name":"Cummer Park Community Centre","url":"/parks/prd/facilities/complex/499/index.htm","address":"6000 Leslie St","coordinates":{"latitude":43.6582289,"longitude":-79.32773759999999}},{"name":"CW Jefferys Collegiate Institute","url":"/parks/prd/facilities/complex/1163/index.htm","address":"340 Sentinel Rd","coordinates":{"latitude":43.7583032,"longitude":-79.5002222}},{"name":"DA Morrison Junior High School","url":"/parks/prd/facilities/complex/1164/index.htm","address":"271 Gledhill Ave","coordinates":{"latitude":43.69461500000001,"longitude":-79.3120553}},{"name":"Dennis R. Timbrell Resource Centre","url":"/parks/prd/facilities/complex/1056/index.htm","address":"29 St Dennis Dr","coordinates":{"latitude":43.7180414,"longitude":-79.3316281}},{"name":"Don Mills Collegiate Institute","url":"/parks/prd/facilities/complex/1174/index.htm","address":"15 The Donway E","coordinates":{"latitude":43.7357123,"longitude":-79.33961719999999}},{"name":"Douglas Snow Aquatic Centre","url":"/parks/prd/facilities/complex/567/index.htm","address":"5100 Yonge St","coordinates":{"latitude":43.7673266,"longitude":-79.41476039999999}},{"name":"Earl Beatty Community Centre","url":"/parks/prd/facilities/complex/36/index.htm","address":"455 Glebeholme Blvd","coordinates":{"latitude":43.6862324,"longitude":-79.32156859999999}},{"name":"East York Community Centre","url":"/parks/prd/facilities/complex/329/index.htm","address":"1081 1/2 Pape Ave","coordinates":{"latitude":43.6592253,"longitude":-79.3368285}},{"name":"Emery Collegiate Institute","url":"/parks/prd/facilities/complex/1186/index.htm","address":"3395 Weston Rd","coordinates":{"latitude":43.747204,"longitude":-79.541217}},{"name":"Etobicoke Olympium","url":"/parks/prd/facilities/complex/892/index.htm","address":"590 Rathburn Rd","coordinates":{"latitude":43.6496624,"longitude":-79.5835109}},{"name":"Fairmount Park Community Centre","url":"/parks/prd/facilities/complex/308/index.htm","address":"1757 Gerrard St E","coordinates":{"latitude":43.6765569,"longitude":-79.31472080000002}},{"name":"Frankland Community Centre","url":"/parks/prd/facilities/complex/39/index.htm","address":"816 Logan Ave","coordinates":{"latitude":43.6771459,"longitude":-79.34994069999999}},{"name":"Georges Vanier Secondary School","url":"/parks/prd/facilities/complex/1200/index.htm","address":"3000 Don Mills Rd E","coordinates":{"latitude":43.7829874,"longitude":-79.3524604}},{"name":"Gordon A. Brown Middle School","url":"/parks/prd/facilities/complex/1205/index.htm","address":"2800 St Clair Ave E","coordinates":{"latitude":43.7071089,"longitude":-79.30551439999999}},{"name":"Gus Ryder Pool And Health Club","url":"/parks/prd/facilities/complex/896/index.htm","address":"1 Faustina Dr","coordinates":{"latitude":43.6012328,"longitude":-79.52197749999999}},{"name":"Harrison Pool","url":"/parks/prd/facilities/complex/45/index.htm","address":"15 Stephanie St","coordinates":{"latitude":43.6510595,"longitude":-79.3908728}},{"name":"Hillcrest Community Centre","url":"/parks/prd/facilities/complex/48/index.htm","address":"1339 Bathurst St","coordinates":{"latitude":43.6791638,"longitude":-79.4164563}},{"name":"Humber Community Pool","url":"/parks/prd/facilities/complex/357/index.htm","address":"205 Humber College Blvd","coordinates":{"latitude":43.728544,"longitude":-79.607913}},{"name":"Jimmie Simpson Recreation Centre","url":"/parks/prd/facilities/complex/58/index.htm","address":"870 Queen St E","coordinates":{"latitude":43.6600644,"longitude":-79.3452488}},{"name":"John Innes Community Recreation Centre","url":"/parks/prd/facilities/complex/63/index.htm","address":"150 Sherbourne St","coordinates":{"latitude":43.6554903,"longitude":-79.37008159999999}},{"name":"Joseph J. Piccininni Community Centre","url":"/parks/prd/facilities/complex/509/index.htm","address":"1369 St Clair Ave W","coordinates":{"latitude":43.6757354,"longitude":-79.45223800000001}},{"name":"L'amoreaux Collegiate Institute","url":"/parks/prd/facilities/complex/1250/index.htm","address":"2501 Bridletowne Cir","coordinates":{"latitude":43.8015127,"longitude":-79.3187485}},{"name":"Leaside Memorial Gardens Swimming Pool - Indoor Pool","url":"/parks/prd/facilities/complex/542/index.htm","address":"1073 Millwood Rd","coordinates":{"latitude":43.7018897,"longitude":-79.36098299999999}},{"name":"Lester B. Pearson Collegiate Institute","url":"/parks/prd/facilities/complex/1255/index.htm","address":"150 Tapscott Rd","coordinates":{"latitude":43.8030975,"longitude":-79.22595260000001}},{"name":"Main Square Community Centre","url":"/parks/prd/facilities/complex/85/index.htm","address":"245 Main St","coordinates":{"latitude":43.6870298,"longitude":-79.300164}},{"name":"Mary McCormick Recreation Centre","url":"/parks/prd/facilities/complex/100/index.htm","address":"66 Sheridan Ave","coordinates":{"latitude":43.6474373,"longitude":-79.4328546}},{"name":"Matty Eckler Recreation Centre","url":"/parks/prd/facilities/complex/234/index.htm","address":"953 Gerrard St E","coordinates":{"latitude":43.6678907,"longitude":-79.3395587}},{"name":"Memorial Pool And Health Club","url":"/parks/prd/facilities/complex/891/index.htm","address":"44 Montgomery Rd","coordinates":{"latitude":43.6485304,"longitude":-79.52003359999999}},{"name":"Nelson A. Boylen Collegiate Institute","url":"/parks/prd/facilities/complex/1133/index.htm","address":"155 Falstaff Ave","coordinates":{"latitude":43.7174111,"longitude":-79.4958031}},{"name":"Norseman Community School And Pool","url":"/parks/prd/facilities/complex/797/index.htm","address":"105 Norseman St","coordinates":{"latitude":43.6347111,"longitude":-79.5160879}},{"name":"North Toronto Memorial Community Centre","url":"/parks/prd/facilities/complex/189/index.htm","address":"200 Eglinton Ave W","coordinates":{"latitude":43.7069278,"longitude":-79.4045237}},{"name":"Northview Heights Secondary School","url":"/parks/prd/facilities/complex/342/index.htm","address":"550 Finch Ave W","coordinates":{"latitude":43.7737479,"longitude":-79.4461644}},{"name":"Parkdale Community Recreation Centre","url":"/parks/prd/facilities/complex/243/index.htm","address":"75 Lansdowne Ave","coordinates":{"latitude":43.6434042,"longitude":-79.4374673}},{"name":"Regent Park Aquatic Centre","url":"/parks/prd/facilities/complex/2012/index.htm","address":"640 Dundas St E","coordinates":{"latitude":43.6606509,"longitude":-79.3605635}},{"name":"Runnymede Collegiate Institute","url":"/parks/prd/facilities/complex/510/index.htm","address":"569 Jane St","coordinates":{"latitude":43.6641108,"longitude":-79.49047929999999}},{"name":"S.H. Armstrong Community Centre","url":"/parks/prd/facilities/complex/267/index.htm","address":"56 Woodfield Rd","coordinates":{"latitude":43.6659584,"longitude":-79.32284159999999}},{"name":"Scadding Court Community Centre","url":"/parks/prd/facilities/complex/1098/index.htm","address":"707 Dundas St W","coordinates":{"latitude":43.6514248,"longitude":-79.4041234}},{"name":"Sir Oliver Mowat Collegiate Institute","url":"/parks/prd/facilities/complex/1315/index.htm","address":"5400 Lawrence Ave E","coordinates":{"latitude":43.77870739999999,"longitude":-79.1408491}},{"name":"Sir Wilfrid Laurier Collegiate Institute","url":"/parks/prd/facilities/complex/1317/index.htm","address":"145 Guildwood Pkwy","coordinates":{"latitude":43.7475675,"longitude":-79.1992928}},{"name":"St. Lawrence Community Recreation Centre","url":"/parks/prd/facilities/complex/272/index.htm","address":"230 The Esplanade","coordinates":{"latitude":43.6496185,"longitude":-79.3649223}},{"name":"Swansea Community Recreation Centre","url":"/parks/prd/facilities/complex/282/index.htm","address":"15 Waller Ave","coordinates":{"latitude":43.6438036,"longitude":-79.4770327}},{"name":"The Elms Pool And Community School","url":"/parks/prd/facilities/complex/795/index.htm","address":"45 Golfdown Dr","coordinates":{"latitude":43.7227238,"longitude":-79.5517986}},{"name":"Toronto Pan Am Sports Centre","url":"/parks/prd/facilities/complex/2773/index.htm","address":"875 Morningside Ave","coordinates":{"latitude":43.790634,"longitude":-79.193632}},{"name":"Trinity Community Recreation Centre","url":"/parks/prd/facilities/complex/287/index.htm","address":"155 Crawford St","coordinates":{"latitude":43.6462738,"longitude":-79.414856}},{"name":"Vaughan Road Academy","url":"/parks/prd/facilities/complex/1371/index.htm","address":"529 Vaughan Rd","coordinates":{"latitude":43.6906118,"longitude":-79.43679379999999}},{"name":"Victoria Park Collegiate Institute","url":"/parks/prd/facilities/complex/1373/index.htm","address":"15 Wallingford Rd","coordinates":{"latitude":43.7556958,"longitude":-79.32156309999999}},{"name":"Wallace Emerson Community Centre","url":"/parks/prd/facilities/complex/294/index.htm","address":"1260 Dufferin St","coordinates":{"latitude":43.66733809999999,"longitude":-79.4393667}},{"name":"West Hill Collegiate Institute","url":"/parks/prd/facilities/complex/1381/index.htm","address":"350 Morningside Ave","coordinates":{"latitude":43.77656899999999,"longitude":-79.18960229999999}},{"name":"Weston Collegiate Institute","url":"/parks/prd/facilities/complex/1384/index.htm","address":"100 Pine St","coordinates":{"latitude":43.7037466,"longitude":-79.509666}},{"name":"Wexford Collegiate Institute","url":"/parks/prd/facilities/complex/1387/index.htm","address":"1176 Pharmacy Ave","coordinates":{"latitude":43.7459385,"longitude":-79.3062393}},{"name":"York Mills Collegiate Institute","url":"/parks/prd/facilities/complex/1399/index.htm","address":"490 York Mills Rd","coordinates":{"latitude":43.7515087,"longitude":-79.37360020000001}},{"name":"Alex Duff Memorial Pool","url":"/parks/prd/facilities/complex/414/index.htm#pfrComplexTabs-dropin","address":"779 Crawford St W","coordinates":{"latitude":43.664867,"longitude":-79.4228365}},{"name":"Alexandra Park","url":"/parks/prd/facilities/complex/31/index.htm#pfrComplexTabs-dropin","address":"275 Bathurst St","coordinates":{"latitude":43.6511083,"longitude":-79.4050451}},{"name":"Amesbury Sports Complex","url":"/parks/prd/facilities/complex/480/index.htm#pfrComplexTabs-dropin","address":"155 Culford Rd","coordinates":{"latitude":43.7060646,"longitude":-79.48676379999999}},{"name":"Amos Waites Park Outdoor Pool","url":"/parks/prd/facilities/complex/906/index.htm#pfrComplexTabs-dropin","address":"2441 Lake Shore Blvd W","coordinates":{"latitude":43.6136868,"longitude":-79.4893416}},{"name":"Blantyre Park","url":"/parks/prd/facilities/complex/557/index.htm#pfrComplexTabs-dropin","address":"180 Fallingbrook Rd","coordinates":{"latitude":43.6846438,"longitude":-79.2802634}},{"name":"Broadlands Community Centre","url":"/parks/prd/facilities/complex/7/index.htm#pfrComplexTabs-dropin","address":"19 Castlegrove Blvd","coordinates":{"latitude":43.7459485,"longitude":-79.3229214}},{"name":"Domenico Diluca Community Recreation Centre","url":"/parks/prd/facilities/complex/760/index.htm#pfrComplexTabs-dropin","address":"25 Stanley Rd","coordinates":{"latitude":43.7419,"longitude":-79.51572870000001}},{"name":"Donald D. Summerville Olympic Pools","url":"/parks/prd/facilities/complex/437/index.htm#pfrComplexTabs-dropin","address":"1867 Lake Shore Blvd E","coordinates":{"latitude":43.6654008,"longitude":-79.3045496}},{"name":"Driftwood Community Recreation Centre","url":"/parks/prd/facilities/complex/575/index.htm#pfrComplexTabs-dropin","address":"4401 Jane St","coordinates":{"latitude":43.7653617,"longitude":-79.51876759999999}},{"name":"Eringate Park Outdoor Pool","url":"/parks/prd/facilities/complex/901/index.htm#pfrComplexTabs-dropin","address":"121 Wellesworth Dr","coordinates":{"latitude":43.6628295,"longitude":-79.5821108}},{"name":"Fairbank Memorial Park","url":"/parks/prd/facilities/complex/502/index.htm#pfrComplexTabs-dropin","address":"2213 Dufferin St","coordinates":{"latitude":43.69098779999999,"longitude":-79.4482719}},{"name":"Fairhaven Park Outdoor Pool","url":"/parks/prd/facilities/complex/887/index.htm#pfrComplexTabs-dropin","address":"100 Golfwood Hts","coordinates":{"latitude":43.7028494,"longitude":-79.54578219999999}},{"name":"Flagstaff Park Outdoor Pool","url":"/parks/prd/facilities/complex/898/index.htm#pfrComplexTabs-dropin","address":"42 Mercury Rd","coordinates":{"latitude":43.7202707,"longitude":-79.5915833}},{"name":"Gihon Spring Park Outdoor Pool","url":"/parks/prd/facilities/complex/894/index.htm#pfrComplexTabs-dropin","address":"75 Gihon Spring Dr","coordinates":{"latitude":43.7549919,"longitude":-79.5960377}},{"name":"Giovanni Caboto Rink, Pool And Tennis Courts","url":"/parks/prd/facilities/complex/1068/index.htm#pfrComplexTabs-dropin","address":"1367 St Clair Ave W","coordinates":{"latitude":43.675662,"longitude":-79.4516601}},{"name":"Glen Long Community Centre","url":"/parks/prd/facilities/complex/638/index.htm#pfrComplexTabs-dropin","address":"35 Glen Long Ave","coordinates":{"latitude":43.7086258,"longitude":-79.4561418}},{"name":"Gord And Irene Risk Community Centre","url":"/parks/prd/facilities/complex/642/index.htm#pfrComplexTabs-dropin","address":"2650 Finch Ave W","coordinates":{"latitude":43.7474296,"longitude":-79.5664765}},{"name":"Goulding Community Centre","url":"/parks/prd/facilities/complex/643/index.htm#pfrComplexTabs-dropin","address":"45 Goulding Ave","coordinates":{"latitude":43.7906023,"longitude":-79.42216440000001}},{"name":"Grandravine Community Recreation Centre","url":"/parks/prd/facilities/complex/647/index.htm#pfrComplexTabs-dropin","address":"23 Grandravine Dr","coordinates":{"latitude":43.75188199999999,"longitude":-79.4905672}},{"name":"Greenwood Park","url":"/parks/prd/facilities/complex/70/index.htm#pfrComplexTabs-dropin","address":"150 Greenwood Ave","coordinates":{"latitude":43.6691945,"longitude":-79.3294595}},{"name":"Halbert Park","url":"/parks/prd/facilities/complex/768/index.htm#pfrComplexTabs-dropin","address":"24 Rockwood Dr","coordinates":{"latitude":43.7293114,"longitude":-79.2296914}},{"name":"Heron Park Community Recreation Centre","url":"/parks/prd/facilities/complex/633/index.htm#pfrComplexTabs-dropin","address":"292 Manse Rd","coordinates":{"latitude":43.7684117,"longitude":-79.17541179999999}},{"name":"High Park","url":"/parks/prd/facilities/complex/77/index.htm#pfrComplexTabs-dropin","address":"1873 Bloor St W","coordinates":{"latitude":43.6498357,"longitude":-79.46538559999999}},{"name":"Irving W. Chapley Community Centre","url":"/parks/prd/facilities/complex/664/index.htm#pfrComplexTabs-dropin","address":"205 Wilmington Ave","coordinates":{"latitude":43.7616036,"longitude":-79.45602430000001}},{"name":"Kidstown - Water Park","url":"/parks/prd/facilities/complex/352/index.htm#pfrComplexTabs-dropin","address":"3159 Birchmount Rd","coordinates":{"latitude":43.807022,"longitude":-79.30943429999999}},{"name":"Kiwanis Outdoor Pool","url":"/parks/prd/facilities/complex/353/index.htm#pfrComplexTabs-dropin","address":"375 Cedarvale Ave","coordinates":{"latitude":43.6982382,"longitude":-79.3162341}},{"name":"Knob Hill Park","url":"/parks/prd/facilities/complex/690/index.htm#pfrComplexTabs-dropin","address":"625 Brimley Rd","coordinates":{"latitude":43.7426438,"longitude":-79.2508409}},{"name":"Lambton - Kingsway Park Outdoor Pool","url":"/parks/prd/facilities/complex/902/index.htm#pfrComplexTabs-dropin","address":"37 Marquis Ave","coordinates":{"latitude":43.65875459999999,"longitude":-79.5078722}},{"name":"Lawrence Heights Community Centre","url":"/parks/prd/facilities/complex/675/index.htm#pfrComplexTabs-dropin","address":"5 Replin Rd","coordinates":{"latitude":43.71848600000001,"longitude":-79.44303769999999}},{"name":"Leaside Outdoor Pool","url":"/parks/prd/facilities/complex/321/index.htm#pfrComplexTabs-dropin","address":"5 Leaside Park Dr","coordinates":{"latitude":43.7023259,"longitude":-79.3498398}},{"name":"Ledbury Park","url":"/parks/prd/facilities/complex/678/index.htm#pfrComplexTabs-dropin","address":"160 Ledbury St","coordinates":{"latitude":43.7281439,"longitude":-79.4242723}},{"name":"Maryvale Park Outdoor Pool","url":"/parks/prd/facilities/complex/790/index.htm#pfrComplexTabs-dropin","address":"5 Trestleside Grv","coordinates":{"latitude":43.7505844,"longitude":-79.3079095}},{"name":"McGregor Park Community Centre","url":"/parks/prd/facilities/complex/506/index.htm#pfrComplexTabs-dropin","address":"2231 Lawrence Ave E","coordinates":{"latitude":43.7474922,"longitude":-79.2801286}},{"name":"Mitchell Field Community Centre","url":"/parks/prd/facilities/complex/693/index.htm#pfrComplexTabs-dropin","address":"89 Church Ave","coordinates":{"latitude":43.7748849,"longitude":-79.4084371}},{"name":"Monarch Park","url":"/parks/prd/facilities/complex/145/index.htm#pfrComplexTabs-dropin","address":"115 Felstead Ave","coordinates":{"latitude":43.6788189,"longitude":-79.3261011}},{"name":"North Toronto Memorial Community Centre","url":"/parks/prd/facilities/complex/189/index.htm#pfrComplexTabs-dropin","address":"200 Eglinton Ave W","coordinates":{"latitude":43.7069278,"longitude":-79.4045237}},{"name":"Northwood Community Centre","url":"/parks/prd/facilities/complex/703/index.htm#pfrComplexTabs-dropin","address":"15 Clubhouse Crt","coordinates":{"latitude":43.7456206,"longitude":-79.50040249999999}},{"name":"Oakdale Community Centre","url":"/parks/prd/facilities/complex/780/index.htm#pfrComplexTabs-dropin","address":"350 Grandravine Dr","coordinates":{"latitude":43.7477306,"longitude":-79.513357}},{"name":"O'Connor Community Centre","url":"/parks/prd/facilities/complex/1093/index.htm#pfrComplexTabs-dropin","address":"1386 Victoria Park Ave","coordinates":{"latitude":43.7176633,"longitude":-79.3017679}},{"name":"Oriole Community Centre","url":"/parks/prd/facilities/complex/714/index.htm#pfrComplexTabs-dropin","address":"2975 Don Mills Rd W","coordinates":{"latitude":43.7818042,"longitude":-79.3512822}},{"name":"Ourland Park Outdoor Pool","url":"/parks/prd/facilities/complex/907/index.htm#pfrComplexTabs-dropin","address":"18 Ourland Ave","coordinates":{"latitude":43.6155435,"longitude":-79.5078885}},{"name":"Pine Point Park Outdoor Pool","url":"/parks/prd/facilities/complex/899/index.htm#pfrComplexTabs-dropin","address":"15 Grierson Rd","coordinates":{"latitude":43.7126479,"longitude":-79.54274769999999}},{"name":"Pleasant View Community Centre","url":"/parks/prd/facilities/complex/732/index.htm#pfrComplexTabs-dropin","address":"545 Van Horne Ave","coordinates":{"latitude":43.7869705,"longitude":-79.3367815}},{"name":"Richmond Gardens Pool","url":"/parks/prd/facilities/complex/889/index.htm#pfrComplexTabs-dropin","address":"44 Strathdee Dr","coordinates":{"latitude":43.6816193,"longitude":-79.5458036}},{"name":"Riverdale Park East","url":"/parks/prd/facilities/complex/343/index.htm#pfrComplexTabs-dropin","address":"550 Broadview Ave","coordinates":{"latitude":43.6708296,"longitude":-79.35458849999999}},{"name":"Roding Community Centre","url":"/parks/prd/facilities/complex/744/index.htm#pfrComplexTabs-dropin","address":"600 Roding St","coordinates":{"latitude":43.72907379999999,"longitude":-79.4920472}},{"name":"Rotary Peace Park Outdoor Pool","url":"/parks/prd/facilities/complex/909/index.htm#pfrComplexTabs-dropin","address":"25 Eleventh St","coordinates":{"latitude":43.595119,"longitude":-79.50773749999999}},{"name":"Smithfield Park Outdoor Pool","url":"/parks/prd/facilities/complex/895/index.htm#pfrComplexTabs-dropin","address":"173 Mount Olive Dr","coordinates":{"latitude":43.7504258,"longitude":-79.59503819999999}},{"name":"Smythe Park","url":"/parks/prd/facilities/complex/504/index.htm#pfrComplexTabs-dropin","address":"61 Black Creek Blvd","coordinates":{"latitude":43.676378,"longitude":-79.4999277}},{"name":"Stanley Park South - Toronto","url":"/parks/prd/facilities/complex/2750/index.htm#pfrComplexTabs-dropin","address":"700 Wellington St W","coordinates":{"latitude":43.641757,"longitude":-79.4080415}},{"name":"Sunnyside Gus Ryder Outdoor Pool","url":"/parks/prd/facilities/complex/433/index.htm#pfrComplexTabs-dropin","address":"1755 Lake Shore Blvd W","coordinates":{"latitude":43.6378737,"longitude":-79.45621349999999}},{"name":"Wedgewood Park  Outdoor Pool","url":"/parks/prd/facilities/complex/903/index.htm#pfrComplexTabs-dropin","address":"15 Swan Ave","coordinates":{"latitude":43.64545409999999,"longitude":-79.5475102}},{"name":"West Deane Park Outdoor Pool","url":"/parks/prd/facilities/complex/904/index.htm#pfrComplexTabs-dropin","address":"19 Sedgebrook Cres","coordinates":{"latitude":43.6599909,"longitude":-79.56351959999999}},{"name":"West Mall Outdoor Pool","url":"/parks/prd/facilities/complex/905/index.htm#pfrComplexTabs-dropin","address":"380 The West Mall","coordinates":{"latitude":43.64337159999999,"longitude":-79.56673599999999}},{"name":"Westgrove Park Outdoor Pool","url":"/parks/prd/facilities/complex/900/index.htm#pfrComplexTabs-dropin","address":"15 Redgrave Dr","coordinates":{"latitude":43.6828481,"longitude":-79.5692569}},{"name":"Westmount Park Outdoor Pool","url":"/parks/prd/facilities/complex/888/index.htm#pfrComplexTabs-dropin","address":"22 Arcade Dr","coordinates":{"latitude":43.6881941,"longitude":-79.5182517}},{"name":"Weston Lions Park","url":"/parks/prd/facilities/complex/508/index.htm#pfrComplexTabs-dropin","address":"2125 Lawrence Ave W","coordinates":{"latitude":43.6991785,"longitude":-79.5195457}}]